$GPGGA,192834.000,4229.7281,N,07107.7247,W,1,05,5.3,29.6,M,-33.6,M,,0000*58
$GPGSA,A,3,11,17,09,27,32,,,,,,,,5.4,5.3,1.0*3F
$GPRMC,192834.000,A,4229.7281,N,07107.7247,W,0.49,182.65,211009,,*1C
$GPGGA,192835.000,4229.7279,N,07107.7248,W,1,05,5.3,29.6,M,-33.6,M,,0000*51
$GPGSA,A,3,11,17,09,27,32,,,,,,,,5.4,5.3,1.0*3F
$GPGSV,3,1,09,17,69,326,34,28,62,161,07,20,41,092,18,04,33,229,*7C
$GPGSV,3,2,09,32,28,061,30,11,25,059,27,27,20,300,28,09,17,308,32*7B
$GPGSV,3,3,09,02,03,231,16*46
$GPRMC,192835.000,A,4229.7279,N,07107.7248,W,0.45,181.11,211009,,*19
$GPGGA,192836.000,4229.7278,N,07107.7248,W,1,05,5.3,29.5,M,-33.6,M,,0000*50
$GPGSA,A,3,11,17,09,27,32,,,,,,,,5.4,5.3,1.0*3F
$GPRMC,192836.000,A,4229.7278,N,07107.7248,W,0.44,184.14,211009,,*1A
$GPGGA,192837.000,4229.7276,N,07107.7248,W,1,05,5.3,29.4,M,-33.6,M,,0000*5E
$GPGSA,A,3,11,17,09,27,32,,,,,,,,5.4,5.3,1.0*3F
$GPRMC,192837.000,A,4229.7276,N,07107.7248,W,0.47,179.50,211009,,*14
$GPGGA,192838.000,4229.7275,N,07107.7248,W,1,05,5.3,29.3,M,-33.6,M,,0000*55
$GPGSA,A,3,11,17,09,27,32,,,,,,,,5.4,5.3,1.0*3F
$GPRMC,192838.000,A,4229.7275,N,07107.7248,W,0.45,182.26,211009,,*1F
$GPGGA,192839.000,4229.7273,N,07107.7248,W,1,05,5.3,29.2,M,-33.6,M,,0000*53
$GPGSA,A,3,11,17,09,27,32,,,,,,,,5.4,5.3,1.0*3F
$GPRMC,192839.000,A,4229.7273,N,07107.7248,W,0.46,182.47,211009,,*1C
$GPGGA,192840.000,4229.7272,N,07107.7249,W,1,05,5.3,29.1,M,-33.6,M,,0000*5E
$GPGSA,A,3,11,17,09,27,32,,,,,,,,5.4,5.3,1.0*3F
$GPGSV,3,1,09,17,69,326,34,28,61,161,,20,41,092,20,04,33,229,*73
$GPGSV,3,2,09,32,28,061,30,11,25,059,27,27,20,299,27,09,17,308,32*75
$GPGSV,3,3,09,02,03,231,16*46
$GPRMC,192840.000,A,4229.7272,N,07107.7249,W,0.42,180.62,211009,,*13
$GPGGA,192841.000,4229.7271,N,07107.7249,W,1,05,5.3,29.0,M,-33.6,M,,0000*5D
$GPGSA,A,3,11,17,09,27,32,,,,,,,,5.4,5.3,1.0*3F
$GPRMC,192841.000,A,4229.7271,N,07107.7249,W,0.44,181.00,211009,,*12
$GPGGA,192842.000,4229.7269,N,07107.7249,W,1,05,5.3,28.9,M,-33.6,M,,0000*5F
$GPGSA,A,3,11,17,09,27,32,,,,,,,,5.4,5.3,1.0*3F
$GPRMC,192842.000,A,4229.7269,N,07107.7249,W,0.44,183.54,211009,,*1B
$GPGGA,192843.000,4229.7268,N,07107.7249,W,1,05,5.3,28.8,M,-33.6,M,,0000*5E
$GPGSA,A,3,11,17,09,27,32,,,,,,,,5.4,5.3,1.0*3F
$GPRMC,192843.000,A,4229.7268,N,07107.7249,W,0.43,181.68,211009,,*11
$GPGGA,192844.000,4229.7267,N,07107.7249,W,1,05,5.3,28.7,M,-33.6,M,,0000*59
$GPGSA,A,3,11,17,09,27,32,,,,,,,,5.4,5.3,1.0*3F
$GPRMC,192844.000,A,4229.7267,N,07107.7249,W,0.41,179.04,211009,,*16
$GPGGA,192845.000,4229.7270,N,07107.7249,W,1,05,5.3,29.0,M,-33.6,M,,0000*58
$GPGSA,A,3,11,17,09,27,32,,,,,,,,5.4,5.3,1.0*3F
$GPGSV,3,1,09,17,69,326,34,28,61,161,,20,41,092,21,04,33,229,12*71
$GPGSV,3,2,09,32,28,061,30,11,25,059,27,27,20,299,26,09,17,308,32*74
$GPGSV,3,3,09,02,03,231,*41
$GPRMC,192845.000,A,4229.7270,N,07107.7249,W,0.34,187.37,211009,,*12
$GPGGA,192846.000,4229.7271,N,07107.7249,W,1,05,5.3,29.0,M,-33.6,M,,0000*5A
$GPGSA,A,3,11,17,09,27,32,,,,,,,,5.4,5.3,1.0*3F
$GPRMC,192846.000,A,4229.7271,N,07107.7249,W,0.35,191.26,211009,,*16
$GPGGA,192847.000,4229.7272,N,07107.7249,W,1,05,5.3,29.0,M,-33.6,M,,0000*58
$GPGSA,A,3,11,17,09,27,32,,,,,,,,5.4,5.3,1.0*3F
$GPRMC,192847.000,A,4229.7272,N,07107.7249,W,0.35,135.94,211009,,*13
$GPGGA,192848.000,4229.7274,N,07107.7248,W,1,05,5.3,29.2,M,-33.6,M,,0000*52
$GPGSA,A,3,11,17,09,27,32,,,,,,,,5.4,5.3,1.0*3F
$GPRMC,192848.000,A,4229.7274,N,07107.7248,W,0.15,180.89,211009,,*1B
$GPGGA,192849.000,4229.7289,N,07107.7245,W,1,05,5.3,30.6,M,-33.6,M,,0000*50
$GPGSA,A,3,11,17,09,27,32,,,,,,,,5.4,5.3,1.0*3F
$GPRMC,192849.000,A,4229.7289,N,07107.7245,W,0.09,138.87,211009,,*15
$GPGGA,192850.000,4229.7299,N,07107.7243,W,1,05,5.3,31.5,M,-33.6,M,,0000*5D
$GPGSA,A,3,11,17,09,27,32,,,,,,,,5.4,5.3,1.0*3F
$GPGSV,3,1,09,17,69,326,34,28,61,161,,20,41,092,22,04,33,229,14*74
$GPGSV,3,2,09,32,28,061,30,11,25,059,26,27,20,299,26,09,17,308,32*75
$GPGSV,3,3,09,02,03,231,15*45
$GPRMC,192850.000,A,4229.7299,N,07107.7243,W,0.06,97.27,211009,,*2B
$GPGGA,192851.000,4229.7305,N,07107.7242,W,1,05,5.3,32.0,M,-33.6,M,,0000*5F
$GPGSA,A,3,11,17,09,27,32,,,,,,,,5.4,5.3,1.0*3F
$GPRMC,192851.000,A,4229.7305,N,07107.7242,W,0.04,295.25,211009,,*1F
$GPGGA,192852.000,4229.7309,N,07107.7242,W,1,05,5.3,32.3,M,-33.6,M,,0000*53
$GPGSA,A,3,11,17,09,27,32,,,,,,,,5.4,5.3,1.0*3F
$GPRMC,192852.000,A,4229.7309,N,07107.7242,W,0.08,11.04,211009,,*21
$GPGGA,192853.000,4229.7312,N,07107.7242,W,1,05,5.3,32.6,M,-33.6,M,,0000*5D
$GPGSA,A,3,11,17,09,27,32,,,,,,,,5.4,5.3,1.0*3F
$GPRMC,192853.000,A,4229.7312,N,07107.7242,W,0.08,4.57,211009,,*18
$GPGGA,192854.000,4229.7314,N,07107.7242,W,1,05,5.3,32.7,M,-33.6,M,,0000*5D
$GPGSA,A,3,11,17,09,27,32,,,,,,,,5.4,5.3,1.0*3F
$GPRMC,192854.000,A,4229.7314,N,07107.7242,W,0.05,25.91,211009,,*2D
$GPGGA,192855.000,4229.7323,N,07107.7241,W,1,05,5.3,33.1,M,-33.6,M,,0000*5C
$GPGSA,A,3,11,17,09,27,32,,,,,,,,5.4,5.3,1.0*3F
$GPGSV,3,1,09,17,69,326,34,28,61,161,,20,41,092,22,04,33,229,14*74
$GPGSV,3,2,09,32,28,061,30,11,25,059,25,27,20,299,26,09,17,308,32*76
$GPGSV,3,3,09,02,03,231,13*43
$GPRMC,192855.000,A,4229.7323,N,07107.7241,W,0.57,18.69,211009,,*25
$GPGGA,192856.000,4229.7329,N,07107.7240,W,1,05,5.3,33.3,M,-33.6,M,,0000*56
$GPGSA,A,3,11,17,09,27,32,,,,,,,,5.4,5.3,1.0*3F
$GPRMC,192856.000,A,4229.7329,N,07107.7240,W,0.41,357.67,211009,,*1C
$GPGGA,192857.000,4229.7333,N,07107.7240,W,1,05,5.3,33.5,M,-33.6,M,,0000*5A
$GPGSA,A,3,11,17,09,27,32,,,,,,,,5.4,5.3,1.0*3F
$GPRMC,192857.000,A,4229.7333,N,07107.7240,W,0.24,313.67,211009,,*15
$GPGGA,192858.000,4229.7341,N,07107.7239,W,1,05,5.3,33.7,M,-33.6,M,,0000*5C
$GPGSA,A,3,11,17,09,27,32,,,,,,,,5.4,5.3,1.0*3F
$GPRMC,192858.000,A,4229.7341,N,07107.7239,W,0.60,15.47,211009,,*26
$GPGGA,192859.000,4229.7355,N,07107.7236,W,1,05,5.4,34.1,M,-33.6,M,,0000*51
$GPGSA,A,3,11,17,09,27,32,,,,,,,,5.4,5.4,1.0*38
$GPRMC,192859.000,A,4229.7355,N,07107.7236,W,0.92,8.26,211009,,*1B
$GPGGA,192900.000,4229.7368,N,07107.7233,W,1,05,5.4,34.5,M,-33.6,M,,0000*53
$GPGSA,A,3,11,17,09,27,32,,,,,,,,5.4,5.4,1.0*38
$GPGSV,3,1,09,17,69,326,34,28,61,161,09,20,41,092,21,04,33,229,*7B
$GPGSV,3,2,09,32,28,061,31,11,25,059,18,27,20,299,25,09,17,308,32*7A
$GPGSV,3,3,09,02,03,231,13*43
$GPRMC,192900.000,A,4229.7368,N,07107.7233,W,1.10,8.40,211009,,*16
$GPGGA,192901.000,4229.7375,N,07107.7232,W,1,05,5.4,34.7,M,-33.6,M,,0000*5D
$GPGSA,A,3,11,17,09,27,32,,,,,,,,5.4,5.4,1.0*38
$GPRMC,192901.000,A,4229.7375,N,07107.7232,W,1.26,14.34,211009,,*21
$GPGGA,192902.000,4229.7384,N,07107.7230,W,1,05,5.4,34.9,M,-33.6,M,,0000*5C
$GPGSA,A,3,11,17,09,27,32,,,,,,,,5.4,5.4,1.0*38
$GPRMC,192902.000,A,4229.7384,N,07107.7230,W,1.44,13.43,211009,,*2D
$GPGGA,192903.000,4229.7396,N,07107.7228,W,1,05,5.4,35.4,M,-33.6,M,,0000*5B
$GPGSA,A,3,11,17,09,27,32,,,,,,,,5.4,5.4,1.0*38
$GPRMC,192903.000,A,4229.7396,N,07107.7228,W,0.97,350.14,211009,,*1F
$GPGGA,192904.000,4229.7407,N,07107.7227,W,1,05,5.4,35.8,M,-33.6,M,,0000*50
$GPGSA,A,3,11,17,09,27,32,,,,,,,,5.4,5.4,1.0*38
$GPRMC,192904.000,A,4229.7407,N,07107.7227,W,0.94,352.75,211009,,*1E
$GPGGA,192905.000,4229.7415,N,07107.7226,W,1,05,5.4,36.1,M,-33.6,M,,0000*59
$GPGSA,A,3,11,17,09,27,32,,,,,,,,5.4,5.4,1.0*38
$GPGSV,3,1,09,17,69,326,34,28,61,161,,20,41,092,20,04,33,229,*73
$GPGSV,3,2,09,32,28,061,31,11,25,059,17,27,20,299,25,09,17,308,32*75
$GPGSV,3,3,09,02,03,231,14*44
$GPRMC,192905.000,A,4229.7415,N,07107.7226,W,0.94,0.74,211009,,*18
$GPGGA,192906.000,4229.7422,N,07107.7225,W,1,05,5.4,36.5,M,-33.6,M,,0000*59
$GPGSA,A,3,11,17,09,27,32,,,,,,,,5.4,5.4,1.0*38
$GPRMC,192906.000,A,4229.7422,N,07107.7225,W,0.96,3.82,211009,,*14
$GPGGA,192907.000,4229.7430,N,07107.7224,W,1,05,5.4,36.8,M,-33.6,M,,0000*57
$GPGSA,A,3,11,17,09,27,32,,,,,,,,5.5,5.4,1.0*39
$GPRMC,192907.000,A,4229.7430,N,07107.7224,W,1.00,4.74,211009,,*17
$GPGGA,192908.000,4229.7433,N,07107.7224,W,1,04,5.6,37.0,M,-33.6,M,,0000*51
$GPGSA,A,3,17,09,27,32,,,,,,,,,5.7,5.6,1.0*39
$GPRMC,192908.000,A,4229.7433,N,07107.7224,W,0.90,3.48,211009,,*1B
$GPGGA,192909.000,4229.7439,N,07107.7224,W,1,05,5.4,37.2,M,-33.6,M,,0000*5B
$GPGSA,A,3,11,17,09,27,32,,,,,,,,5.5,5.4,1.0*39
$GPRMC,192909.000,A,4229.7439,N,07107.7224,W,0.86,4.83,211009,,*17
$GPGGA,192910.000,4229.7441,N,07107.7224,W,1,05,5.4,37.4,M,-33.6,M,,0000*5A
$GPGSA,A,3,11,17,09,27,32,,,,,,,,5.5,5.4,1.0*39
$GPGSV,3,1,09,17,69,327,34,28,61,161,,20,41,091,21,04,33,229,14*75
$GPGSV,3,2,09,32,28,061,30,11,25,060,15,27,20,299,25,09,17,308,32*7C
$GPGSV,3,3,09,02,03,231,14*44
$GPRMC,192910.000,A,4229.7441,N,07107.7224,W,0.74,2.13,211009,,*12
$GPGGA,192911.000,4229.7438,N,07107.7226,W,1,05,5.4,37.3,M,-33.6,M,,0000*50
$GPGSA,A,3,11,17,09,27,32,,,,,,,,5.5,5.4,1.0*39
$GPRMC,192911.000,A,4229.7438,N,07107.7226,W,0.49,0.03,211009,,*12
$GPGGA,192912.000,4229.7438,N,07107.7226,W,1,05,5.4,37.4,M,-33.6,M,,0000*54
$GPGSA,A,3,11,17,09,27,32,,,,,,,,5.5,5.4,1.0*39
$GPRMC,192912.000,A,4229.7438,N,07107.7226,W,0.49,3.33,211009,,*11
$GPGGA,192913.000,4229.7435,N,07107.7227,W,1,05,5.4,37.3,M,-33.6,M,,0000*5E
$GPGSA,A,3,11,17,09,27,32,,,,,,,,5.5,5.4,1.0*39
$GPRMC,192913.000,A,4229.7435,N,07107.7227,W,0.28,357.65,211009,,*1A
$GPGGA,192914.000,4229.7435,N,07107.7228,W,1,05,5.4,37.3,M,-33.6,M,,0000*56
$GPGSA,A,3,11,17,09,27,32,,,,,,,,5.5,5.4,1.0*39
$GPRMC,192914.000,A,4229.7435,N,07107.7228,W,0.69,21.52,211009,,*21
$GPGGA,192915.000,4229.7437,N,07107.7228,W,1,04,5.6,37.2,M,-33.6,M,,0000*57
$GPGSA,A,3,17,09,27,32,,,,,,,,,5.7,5.6,1.0*39
$GPGSV,3,1,09,17,69,327,33,28,61,161,08,20,41,091,21,04,33,229,12*7C
$GPGSV,3,2,09,32,28,061,30,11,25,060,,27,20,299,24,09,17,308,32*79
$GPGSV,3,3,09,02,03,231,14*44
$GPRMC,192915.000,A,4229.7437,N,07107.7228,W,0.83,22.02,211009,,*20
$GPGGA,192916.000,4229.7440,N,07107.7227,W,1,04,5.6,37.4,M,-33.6,M,,0000*5D
$GPGSA,A,3,17,09,27,32,,,,,,,,,5.7,5.6,1.0*39
$GPRMC,192916.000,A,4229.7440,N,07107.7227,W,1.04,18.94,211009,,*24
$GPGGA,192917.000,4229.7441,N,07107.7226,W,1,04,5.6,37.4,M,-33.6,M,,0000*5C
$GPGSA,A,3,17,09,27,32,,,,,,,,,5.7,5.6,1.0*39
$GPRMC,192917.000,A,4229.7441,N,07107.7226,W,0.87,4.07,211009,,*18
$GPGGA,192918.000,4229.7437,N,07107.7228,W,1,04,5.6,36.9,M,-33.6,M,,0000*50
$GPGSA,A,3,17,09,27,32,,,,,,,,,5.7,5.6,1.0*39
$GPRMC,192918.000,A,4229.7437,N,07107.7228,W,0.92,7.79,211009,,*16
$GPGGA,192919.000,4229.7431,N,07107.7229,W,1,04,5.6,36.2,M,-33.6,M,,0000*5D
$GPGSA,A,3,17,09,27,32,,,,,,,,,5.7,5.6,1.0*39
$GPRMC,192919.000,A,4229.7431,N,07107.7229,W,0.83,6.88,211009,,*1F
$GPGGA,192920.000,4229.7427,N,07107.7230,W,1,04,5.6,35.8,M,-33.6,M,,0000*51
$GPGSA,A,3,17,09,27,32,,,,,,,,,5.7,5.6,1.0*39
$GPGSV,3,1,09,17,69,327,33,28,61,161,,20,41,091,20,04,33,229,*76
$GPGSV,3,2,09,32,28,061,29,11,25,060,,27,20,299,23,09,17,308,32*76
$GPGSV,3,3,09,02,03,231,*41
$GPRMC,192920.000,A,4229.7427,N,07107.7230,W,0.77,9.20,211009,,*1C
$GPGGA,192921.000,4229.7421,N,07107.7232,W,1,04,5.7,35.3,M,-33.6,M,,0000*5E
$GPGSA,A,3,17,09,27,32,,,,,,,,,5.7,5.7,1.0*38
$GPRMC,192921.000,A,4229.7421,N,07107.7232,W,0.56,342.59,211009,,*18
$GPGGA,192922.000,4229.7413,N,07107.7234,W,1,04,5.7,34.5,M,-33.6,M,,0000*5D
$GPGSA,A,3,17,09,27,32,,,,,,,,,5.7,5.7,1.0*38
$GPRMC,192922.000,A,4229.7413,N,07107.7234,W,0.50,359.43,211009,,*1B
$GPGGA,192923.000,4229.7408,N,07107.7235,W,1,04,5.7,34.1,M,-33.6,M,,0000*53
$GPGSA,A,3,17,09,27,32,,,,,,,,,5.7,5.7,1.0*38
$GPRMC,192923.000,A,4229.7408,N,07107.7235,W,0.37,336.66,211009,,*1E
$GPGGA,192924.000,4229.7407,N,07107.7235,W,1,04,5.7,34.0,M,-33.6,M,,0000*5A
$GPGSA,A,3,17,09,27,32,,,,,,,,,5.7,5.7,1.0*38
$GPRMC,192924.000,A,4229.7407,N,07107.7235,W,0.48,14.40,211009,,*29
$GPGGA,192925.000,4229.7412,N,07107.7234,W,1,04,5.7,34.3,M,-33.6,M,,0000*5D
$GPGSA,A,3,17,09,27,32,,,,,,,,,5.7,5.7,1.0*38
$GPGSV,3,1,09,17,69,327,33,28,61,161,,20,41,091,19,04,33,229,*7C
$GPGSV,3,2,09,32,28,061,28,11,25,060,,27,20,299,19,09,17,308,32*7E
$GPGSV,3,3,09,02,03,231,*41
$GPRMC,192925.000,A,4229.7412,N,07107.7234,W,0.50,21.82,211009,,*2C
$GPGGA,192926.000,4229.7412,N,07107.7234,W,1,04,5.7,34.3,M,-33.6,M,,0000*5E
$GPGSA,A,3,17,09,27,32,,,,,,,,,5.7,5.7,1.0*38
$GPRMC,192926.000,A,4229.7412,N,07107.7234,W,0.43,9.73,211009,,*19
$GPGGA,192927.000,4229.7410,N,07107.7234,W,1,05,5.4,34.3,M,-33.6,M,,0000*5F
$GPGSA,A,3,11,17,09,27,32,,,,,,,,5.5,5.4,1.0*39
$GPRMC,192927.000,A,4229.7410,N,07107.7234,W,0.46,31.75,211009,,*22
$GPGGA,192928.000,4229.7400,N,07107.7235,W,1,05,5.4,33.7,M,-33.6,M,,0000*53
$GPGSA,A,3,11,17,09,27,32,,,,,,,,5.5,5.4,1.0*39
$GPRMC,192928.000,A,4229.7400,N,07107.7235,W,0.51,36.87,211009,,*21
$GPGGA,192929.000,4229.7385,N,07107.7238,W,1,05,5.4,32.9,M,-33.6,M,,0000*5A
$GPGSA,A,3,11,17,09,27,32,,,,,,,,5.5,5.4,1.0*39
$GPRMC,192929.000,A,4229.7385,N,07107.7238,W,0.32,48.38,211009,,*2F
$GPGGA,192930.000,4229.7376,N,07107.7240,W,1,05,5.4,32.4,M,-33.6,M,,0000*5C
$GPGSA,A,3,11,17,09,27,32,,,,,,,,5.5,5.4,1.0*39
$GPGSV,3,1,09,17,69,327,32,28,61,161,,20,41,091,19,04,33,229,08*75
$GPGSV,3,2,09,32,28,061,28,11,25,060,19,27,20,299,19,09,17,308,32*76
$GPGSV,3,3,09,02,03,231,14*44
$GPRMC,192930.000,A,4229.7376,N,07107.7240,W,0.35,226.71,211009,,*14
$GPGGA,192931.000,4229.7366,N,07107.7242,W,1,05,5.4,32.0,M,-33.6,M,,0000*5A
$GPGSA,A,3,11,17,09,27,32,,,,,,,,5.5,5.4,1.0*39
$GPRMC,192931.000,A,4229.7366,N,07107.7242,W,0.44,198.09,211009,,*19
$GPGGA,192932.000,4229.7354,N,07107.7244,W,1,05,5.4,31.2,M,-33.6,M,,0000*5F
$GPGSA,A,3,11,17,09,27,32,,,,,,,,5.5,5.4,1.0*39
$GPRMC,192932.000,A,4229.7354,N,07107.7244,W,0.28,127.14,211009,,*1F
$GPGGA,192933.000,4229.7353,N,07107.7244,W,1,05,5.4,31.4,M,-33.6,M,,0000*5F
$GPGSA,A,3,11,17,09,27,32,,,,,,,,5.5,5.4,1.0*39
$GPRMC,192933.000,A,4229.7353,N,07107.7244,W,0.29,109.29,211009,,*1A
$GPGGA,192934.000,4229.7350,N,07107.7244,W,1,05,5.4,31.3,M,-33.6,M,,0000*5C
$GPGSA,A,3,11,17,09,27,32,,,,,,,,5.5,5.4,1.0*39
$GPRMC,192934.000,A,4229.7350,N,07107.7244,W,0.62,54.55,211009,,*23
$GPGGA,192935.000,4229.7341,N,07107.7245,W,1,05,5.4,30.8,M,-33.6,M,,0000*56
$GPGSA,A,3,11,17,09,27,32,,,,,,,,5.5,5.4,1.0*39
$GPGSV,3,1,09,17,69,327,33,28,61,161,07,20,41,091,19,04,33,229,*7B
$GPGSV,3,2,09,32,28,061,28,11,25,060,20,27,20,299,20,09,17,308,33*77
$GPGSV,3,3,09,02,03,231,17*47
$GPRMC,192935.000,A,4229.7341,N,07107.7245,W,0.12,257.81,211009,,*1C
$GPGGA,192936.000,4229.7332,N,07107.7247,W,1,05,5.4,30.3,M,-33.6,M,,0000*58
$GPGSA,A,3,11,17,09,27,32,,,,,,,,5.5,5.4,1.0*39
$GPRMC,192936.000,A,4229.7332,N,07107.7247,W,0.28,208.62,211009,,*17
$GPGGA,192937.000,4229.7331,N,07107.7247,W,1,05,5.4,30.2,M,-33.6,M,,0000*5B
$GPGSA,A,3,11,17,09,27,32,,,,,,,,5.5,5.4,1.0*39
$GPRMC,192937.000,A,4229.7331,N,07107.7247,W,0.53,86.35,211009,,*2F